time(millisecond),datetime(utc),latitude,longitude,height_above_takeoff(feet),height_above_ground_at_drone_location(feet),ground_elevation_at_drone_location(feet),altitude_above_seaLevel(feet),height_sonar(feet),speed(mph),distance(feet),mileage(feet),satellites,gpslevel,voltage(v),max_altitude(feet),max_ascent(feet),max_speed(mph),max_distance(feet), xSpeed(mph), ySpeed(mph), zSpeed(mph), compass_heading(degrees), pitch(degrees), roll(degrees),wind_speed(mph),wind_direction(degrees),isPhoto,isVideo,rc_elevator,rc_aileron,rc_throttle,rc_rudder,rc_elevator(percent),rc_aileron(percent),rc_throttle(percent),rc_rudder(percent),gimbal_heading(degrees),gimbal_pitch(degrees),gimbal_roll(degrees),battery_percent,voltageCell1,voltageCell2,voltageCell3,voltageCell4,voltageCell5,voltageCell6,current(A),battery_temperature(f),altitude(feet),ascent(feet),flycStateRaw,flycState,message
182900,2026-06-24 10:57:19,12.8566547921456,100.973109462191,0,Available with any HD 360 subscription,Available with any HD 360 subscription,120.26397957023,0.656168,0,0,0,26,5,0,120.26397957023,0,0,0,0,0,0,301.8, 0.9, 1.9,Available with Enterprise subscription,,0,0,1024,1024,1024,1024,0,0,0,0,311.9,0,0,88,4.222,4.214,0,0,0,0,0,103.46,120.26397957023,0,41,Motors_Started,"Flying over unknown terrain. No SD card. Insert card (Code: 10022)"
183000,2026-06-24 10:57:19,12.8566547911636,100.973109458685,0,,,120.26397957023,0.656168,0,0.00129757878168,0.00129757878168,26,5,0,120.26397957023,0,0,0.00129757878168,0,0,0,301.8, 0.9, 1.9,,,0,0,1024,1024,1024,1024,0,0,0,0,311.9,0,0,88,4.222,4.214,0,0,0,0,0,103.46,120.26397957023,0,41,Motors_Started,
183100,2026-06-24 10:57:20,12.8566547887959,100.973109456616,0,,,120.26397957023,0.328084,0,0.00232955716116,0.0024325296054,26,5,0,120.26397957023,0,0,0.00232955716116,0,0,0,301.8, 0.9, 1.9,,,0,0,1024,1024,1024,1024,0,0,0,0,311.9,0,0,88,4.222,4.214,0,0,0,0,0,103.46,120.26397957023,0,41,Motors_Started,
183200,2026-06-24 10:57:20,12.8566547865405,100.973109455271,0,,,120.26397957023,0.328084,0,0.00320013461684,0.0033842848852,26,5,8.435,120.26397957023,0,0,0.00320013461684,0,0,0,301.8, 0.9, 1.9,,,0,0,1024,1024,1024,1024,0,0,0,0,311.9,0,0,88,4.222,4.214,0,0,0,0,0.582,103.46,120.26397957023,0,41,Motors_Started,
183300,2026-06-24 10:57:20,12.8566547893626,100.973109466203,0,,,120.26397957023,0.328084,0,0.00175126646024,0.0074066275336,26,5,8.435,120.26397957023,0,0,0.00320013461684,0,0,0,301.8, 0.9, 1.9,,,0,0,1024,1024,1024,1024,0,0,0,0,311.9,0,0,88,4.222,4.214,0,0,0,0,0.582,103.46,120.26397957023,0,41,Motors_Started,
183400,2026-06-24 10:57:20,12.8566547434323,100.973109511136,0,,,120.26397957023,0.328084,0,0.0248793971216,0.0305642398232,26,5,8.435,120.26397957023,0,0,0.0248793971216,0,0,0,301.8, 0.9, 1.9,,,0,0,1024,1024,1024,1024,0,0,0,0,311.9,0,0,88,4.222,4.214,0,0,0,0,0.582,103.46,120.26397957023,0,41,Motors_Started,
183500,2026-06-24 10:57:20,12.8566546897246,100.973109563074,0,,,120.26397957023,0.328084,0,0.05180774444,0.05749508058,26,5,8.435,120.26397957023,0,0,0.05180774444,0,0,0,301.8, 0.9, 1.9,,,0,0,1024,1024,1024,1024,0,0,0,0,311.9,0,0,88,4.222,4.214,0,0,0,0,0.582,103.46,120.26397957023,0,41,Motors_Started,"Setting new Return-To-Home altitude to 100m (328 ft). Data Recorder File Index is 10. Setting new Maximum Flight Altitude to 120m (394 ft)"
183600,2026-06-24 10:57:20,12.8566546717303,100.973109580002,0,,,120.26397957023,0.328084,0,3.09672910172,0.066403545432,26,5,8.435,120.26397957023,0,0,3.09672910172,0,0,0,301.8, 0.9, 1.9,,,0,0,1024,1024,1024,1024,0,0,0,0,311.9,0,0,88,4.222,4.214,0,0,0,0,0.582,103.46,120.26397957023,0,41,Motors_Started,
183700,2026-06-24 10:57:20,12.8566546537018,100.97310959676,0,,,120.26397957023,0.328084,0,3.09625009908,0.075280186136,26,5,8.435,120.26397957023,0,0,3.09672910172,0,0,0,301.8, 0.9, 1.9,,,0,0,1024,1024,1024,1024,0,0,0,0,311.9,0,0,88,4.222,4.214,0,0,0,0,0.582,103.46,120.26397957023,0,41,Motors_Started,
183800,2026-06-24 10:57:20,12.8566545789692,100.973109675287,0,,,120.26397957023,0.328084,0,3.09206702808,0.11431430812,26,5,8.435,120.26397957023,0,0,3.09672910172,0,0,0,301.8, 0.9, 1.9,,,0,0,1024,1024,1024,1024,0,0,0,0,311.9,0,0,88,4.222,4.214,0,0,0,0,0.582,103.46,120.26397957023,0,41,Motors_Started,
183900,2026-06-24 10:57:20,12.8566545800912,100.973109673354,0,,,120.26397957023,0.328084,0,3.09233277612,0.115114504996,26,5,8.435,120.26397957023,0,0,3.09672910172,0,0,0,301.8, 0.8, 1.9,,,0,0,1024,1024,1024,1024,0,0,0,0,311.9,0,0,88,4.222,4.214,0,0,0,0,0.582,103.46,120.26397957023,0,41,Motors_Started,
184000,2026-06-24 10:57:20,12.8566545755674,100.973109676478,0,,,120.26397957023,0.328084,0,3.09253946904,0.117104334456,26,5,8.435,120.26397957023,0,0,3.09672910172,0,0,0,301.8, 0.9, 1.9,,,0,0,1024,1024,1024,1024,0,0,0,0,311.9,0,0,88,4.222,4.214,0,0,0,0,0.582,103.46,120.26397957023,0,11,AutoTakeoff,
184100,2026-06-24 10:57:21,12.8566545880348,100.973109664101,0,,,120.26397957023,0.328084,0,3.09300206748,0.123434715236,26,5,8.435,120.26397957023,0,0,3.09672910172,0,0,0,301.8, 0.9, 1.9,,,0,0,1024,1024,1024,1024,0,0,0,0,311.9,0,0,88,4.222,4.214,0,0,0,0,0.582,103.46,120.26397957023,0,11,AutoTakeoff,
184200,2026-06-24 10:57:21,12.8566546585024,100.973109605046,0,,,120.26397957023,0.328084,0,3.09286099136,0.156634847532,26,5,8.408,120.26397957023,0,0,3.09672910172,0,0,0,301.8, 0.9, 1.9,,,0,0,1024,1024,1024,1024,0,0,0,0,311.9,0,0,88,4.207,4.198,0,0,0,0,1.296,103.46,120.26397957023,0,11,AutoTakeoff,
184300,2026-06-24 10:57:21,12.856654663904,100.973109601725,0,,,120.26397957023,0.328084,0,3.09253290736,0.158932747868,26,5,8.408,120.26397957023,0,0,3.09672910172,0,0,0,302.1, 0.8, 1.9,,,0,0,1024,1024,1024,1024,0,0,0,0,311.9,0,0,88,4.207,4.198,0,0,0,0,1.296,103.46,120.26397957023,0,11,AutoTakeoff,
184400,2026-06-24 10:57:21,12.8566546696133,100.973109598759,0,,,120.26397957023,0.328084,0,3.09203421968,0.161267721696,26,5,8.408,120.26397957023,0,0,3.09672910172,0,0,0,302.3, 0.8, 1.9,,,0,0,1024,1024,1024,1024,0,0,0,0,311.9,0,0,88,4.207,4.198,0,0,0,0,1.296,103.46,120.26397957023,0,11,AutoTakeoff,
184500,2026-06-24 10:57:21,12.8566546773842,100.973109600231,0,,,120.26397957023,0.328084,0,3.08984261856,0.164150923888,26,5,8.408,120.26397957023,0,0,3.09672910172,0,0,0,302.4, 0, 1.8,,,0,0,1024,1024,1024,1024,0,0,0,0,312,0,0,88,4.207,4.198,0,0,0,0,1.296,103.46,120.26397957023,0,11,AutoTakeoff,
184600,2026-06-24 10:57:21,12.856654715042,100.973109589036,0,,,120.26397957023,0.328084,0,3.0843012798,0.178455714372,26,5,8.408,120.26397957023,0,0,3.09672910172,0,0,-0.223694,302.2, -1.3, 0.5,,,0,0,1024,1024,1024,1024,0,0,0,0,312,0,0,88,4.207,4.198,0,0,0,0,1.296,103.46,120.26397957023,0,11,AutoTakeoff,
184700,2026-06-24 10:57:21,12.85665476036,100.973109594528,0,,,120.26397957023,0.328084,0,3.07243448152,0.19510499312,26,5,8.408,120.26397957023,0,0,3.09672910172,0,0,-0.447388,302.3, -0.6, -0.3,,,0,0,1024,1024,1024,1024,0,0,0,0,312,0,0,88,4.207,4.198,0,0,0,0,1.296,103.46,120.26397957023,0,11,AutoTakeoff,
184800,2026-06-24 10:57:21,12.8566548159339,100.973109588759,0,,,120.26397957023,0.328084,0,3.061433825,0.215484586948,26,5,8.408,120.26397957023,0,0,3.09672910172,0,0,-0.894776,302, -0.1, 0,,,0,0,1024,1024,1024,1024,0,0,0,0,312,0,0,88,4.207,4.198,0,0,0,0,1.296,103.46,120.26397957023,0,11,AutoTakeoff,
184900,2026-06-24 10:57:21,12.8566548662072,100.973109575152,0,,,120.26397957023,0.656168,0,3.05391742056,0.234454731912,26,5,8.408,120.26397957023,0,0,3.09672910172,0,0,-1.11847,302.1, 0.2, -0.3,,,0,0,1024,1024,1024,1024,0,0,0,0,312,0,0,88,4.207,4.198,0,0,0,0,1.296,103.46,120.26397957023,0,11,AutoTakeoff,
185000,2026-06-24 10:57:21,12.8566548921858,100.973109643385,0.328084,,,120.59206357023,0.656168,0,3.02896007068,0.260510507024,26,5,8.408,120.59206357023,0.328084,0,3.09672910172,0,0,-1.342164,302.1, 0.4, -0.2,,,0,0,1024,1024,1024,1024,0,0,0,0,312,0,0,88,4.207,4.198,0,0,0,0,1.296,103.46,120.59206357023,0.328084,11,AutoTakeoff,
185100,2026-06-24 10:57:22,12.8566549196006,100.973109682264,0.328084,,,120.59206357023,0.984252,0,3.01190626436,0.277578092872,26,5,8.408,120.59206357023,0.328084,0,3.09672910172,0,0,-1.565858,302.1, 0.4, -0.3,,,0,0,1024,1024,1024,1024,0,0,0,0,312,0,0,88,4.207,4.198,0,0,0,0,1.296,103.46,120.59206357023,0.328084,11,AutoTakeoff,
185200,2026-06-24 10:57:22,12.8566549614305,100.973109712906,0.656168,,,120.92014757023,0.984252,0,2.99391741864,0.296331702396,26,5,8.408,120.92014757023,0.656168,0,3.09672910172,0,0,-1.789552,302.1, 0.4, -0.5,,,0,0,1024,1024,1024,1024,0,0,0,0,312,0,0,88,4.207,4.198,0,0,0,0,1.296,103.46,120.92014757023,0.656168,11,AutoTakeoff,
185300,2026-06-24 10:57:22,12.856655006851,100.973109717743,0.984252,,,121.24823157023,1.312336,0,2.98237870436,0.312992464084,26,5,8.358,121.24823157023,0.984252,0,3.09672910172,0,0,-2.013246,302.1, 0.2, -0.4,,,0,0,1024,1024,1024,1024,0,0,0,0,312,0,0,88,4.165,4.154,0,0,0,0,2.569,103.46,121.24823157023,0.984252,11,AutoTakeoff,
185400,2026-06-24 10:57:22,12.8566550389232,100.973109722339,1.312336,,,121.57631557023,1.64042,0,2.97393054136,0.324807753176,26,5,8.358,121.57631557023,1.312336,0,3.09672910172,0,0,-2.013246,302.1, 0, -0.3,,,0,0,1024,1024,1024,1024,0,0,0,0,312,0,0,88,4.165,4.154,0,0,0,0,2.569,103.46,121.57631557023,1.312336,11,AutoTakeoff,
185500,2026-06-24 10:57:22,12.8566551089496,100.973109702743,1.64042,,,121.90439957023,1.968504,0,2.96395350692,0.35128938132,26,5,8.358,121.90439957023,1.64042,0,3.09672910172,0,0,-2.23694,302.1, 0.1, -0.4,,,0,0,1024,1024,1024,1024,0,0,0,0,312,0,0,88,4.165,4.154,0,0,0,0,2.569,103.46,121.90439957023,1.64042,11,AutoTakeoff,"Home Point updated (Code: 30800)"
185600,2026-06-24 10:57:22,12.8566550754997,100.97310971657,1.968504,,,122.23248357023,2.296588,0,2.96743119732,0.36444883056,26,5,8.358,122.23248357023,1.968504,0,3.09672910172,0,0,-2.23694,302.1, 0.2, -0.5,,,0,0,1024,1024,1024,1024,0,0,0,0,312,0,0,88,4.165,4.154,0,0,0,0,2.569,103.46,122.23248357023,1.968504,11,AutoTakeoff,
185700,2026-06-24 10:57:22,12.8566550329094,100.973109732743,2.296588,,,122.56056757023,2.624672,0,2.97233933396,0.38101707256,26,5,8.358,122.56056757023,2.296588,0,3.09672910172,0,0,-2.23694,302.2, 0.2, -0.4,,,0,0,1024,1024,1024,1024,0,0,0,0,312,0,0,88,4.165,4.154,0,0,0,0,2.569,103.46,122.56056757023,2.296588,11,AutoTakeoff,
185800,2026-06-24 10:57:22,12.8566550766657,100.973109746456,2.624672,,,122.88865157023,2.952756,0,2.95873369048,0.39770998648,26,5,8.358,122.88865157023,2.624672,0,3.09672910172,0,0,-2.013246,302.1, 0.1, -0.3,,,0,0,1024,1024,1024,1024,0,0,0,0,312,0,0,88,4.165,4.154,0,0,0,0,2.569,103.46,122.88865157023,2.624672,6,P-GPS,
185900,2026-06-24 10:57:22,12.8566551477456,100.973109761671,2.624672,,,122.88865157023,3.28084,0,2.9386976006,0.42420276948,26,5,8.358,122.88865157023,2.624672,0,3.09672910172,0,0,-1.789552,301.9, 0, -0.2,,,0,0,1024,1024,1024,1024,0,0,0,0,312,0,0,88,4.165,4.154,0,0,0,0,2.569,103.46,122.88865157023,2.624672,6,P-GPS,
186000,2026-06-24 10:57:23,12.8566551059874,100.973109776816,2.952756,,,123.21673557023,3.608924,0,2.94365494984,0.44036418732,26,5,8.358,123.21673557023,2.952756,0,3.09672910172,0,0,-1.11847,301.8, -0.2, -0.1,,,0,0,1093,1024,1024,1024,10,0,0,0,312,0,0,88,4.165,4.154,0,0,0,0,2.569,103.46,123.21673557023,2.952756,6,P-GPS,
186100,2026-06-24 10:57:23,12.8566550251824,100.973109787224,3.28084,,,123.54481957023,3.608924,0,2.95876649888,0.47007547436,26,5,8.358,123.54481957023,3.28084,0,3.09672910172,0,0,-0.671082,301.8, -0.2, 0,,,0,0,1684,1024,1024,1024,100,0,0,0,312,0,0,88,4.165,4.154,0,0,0,0,2.569,103.46,123.54481957023,3.28084,6,P-GPS,
186200,2026-06-24 10:57:23,12.856654960004,100.973109791605,3.28084,,,123.54481957023,3.937008,0,2.97223434708,0.49390749612,26,5,8.358,123.54481957023,3.28084,0,3.09672910172,0,0,-0.447388,301.8, -6.3, -0.1,,,0,0,1024,1024,1024,1024,0,0,0,0,312,0,0,88,4.165,4.154,0,0,0,0,2.569,103.46,123.54481957023,3.28084,6,P-GPS,
186300,2026-06-24 10:57:23,12.856654833552,100.973109725498,3.28084,,,123.54481957023,3.937008,0,3.01938001788,0.54568899384,26,5,8.293,123.54481957023,3.28084,0,3.09672910172,0,0,0,301.9, -12, 0,,,0,0,1024,1024,1024,1024,0,0,0,0,312,0,0,88,4.157,4.154,0,0,0,0,4.802,103.46,123.54481957023,3.28084,6,P-GPS,
186400,2026-06-24 10:57:23,12.8566549218967,100.973109665731,3.28084,,,123.54481957023,3.937008,0.3131716,3.01602043772,0.5843011998,26,5,8.293,123.54481957023,3.28084,0.3131716,3.09672910172,0.223694,-0.223694,0,301.9, 0.7, -0.1,,,0,0,1024,1024,1024,1024,0,0,0,0,312,0,0,88,4.157,4.154,0,0,0,0,4.802,103.46,123.54481957023,3.28084,6,P-GPS,
186500,2026-06-24 10:57:23,12.856655035751,100.973109568803,3.28084,,,123.54481957023,3.937008,0.3131716,3.01806440104,0.638287422,26,5,8.293,123.54481957023,3.28084,0.3131716,3.09672910172,0.223694,-0.223694,0,301.8, 2.1, 0,,,0,0,1241,1024,1024,1024,33,0,0,0,312,0,0,88,4.157,4.154,0,0,0,0,4.802,103.46,123.54481957023,3.28084,6,P-GPS,
186600,2026-06-24 10:57:23,12.8566551176373,100.973109465091,3.28084,,,123.54481957023,3.937008,0.3131716,3.0298885484,0.68575789596,26,5,8.293,123.54481957023,3.28084,0.3131716,3.09672910172,0.223694,-0.223694,0,301.8, 1.9, -0.1,,,0,0,1684,1024,1024,1024,100,0,0,0,312,0,0,88,4.157,4.154,0,0,0,0,4.802,103.46,123.54481957023,3.28084,6,P-GPS,
186700,2026-06-24 10:57:23,12.856655368478,100.973109395448,3.28084,,,123.54481957023,3.937008,0.223694,2.99723106704,0.78057089112,26,5,8.293,123.54481957023,3.28084,0.3131716,3.09672910172,0,-0.223694,0,301.8, -1.4, -0.3,,,0,0,1684,1024,1024,1024,100,0,0,0,312,0,0,88,4.157,4.154,0,0,0,0,4.802,103.46,123.54481957023,3.28084,6,P-GPS,
186800,2026-06-24 10:57:23,12.8566554790737,100.973109196859,3.28084,,,123.54481957023,3.937008,0.3131716,3.033546685,0.86191931892,26,5,8.293,123.54481957023,3.28084,0.3131716,3.09672910172,0.223694,-0.223694,0,301.8, -11.4, -0.4,,,0,0,1684,1024,1024,1024,100,0,0,0,312,0,0,88,4.157,4.154,0,0,0,0,4.802,103.46,123.54481957023,3.28084,6,P-GPS,
186900,2026-06-24 10:57:23,12.8566556121437,100.973108924317,3.28084,,,123.54481957023,3.937008,0.8052984,3.08972450832,0.9703412384,26,5,8.293,123.54481957023,3.28084,0.8052984,3.09672910172,0.447388,-0.671082,0,301.8, -16.3, -0.4,,,0,0,1684,1024,1024,1024,100,0,0,0,312,0,0,88,4.157,4.154,0,0,0,0,4.802,103.46,123.54481957023,3.28084,6,P-GPS,
187000,2026-06-24 10:57:24,12.8566558943286,100.973108495063,3.28084,,,123.54481957023,3.937008,1.2974252,3.17104012772,1.15449806844,26,5,8.293,123.54481957023,3.28084,1.2974252,3.17104012772,0.671082,-1.11847,0,301.8, -17.1, -0.5,,,0,0,1684,1024,1024,1024,100,0,0,0,312,0,0,88,4.157,4.154,0,0,0,0,4.802,103.46,123.54481957023,3.28084,6,P-GPS,
187100,2026-06-24 10:57:24,12.8566563449793,100.973107824115,3.28084,,,123.54481957023,3.937008,2.1027236,3.3132546992,1.44431106984,26,5,8.293,123.54481957023,3.28084,2.1027236,3.3132546992,1.11847,-1.789552,0,301.7, -16.8, -0.5,,,0,0,1684,1024,1024,1024,100,0,0,0,312,0,0,88,4.157,4.154,0,0,0,0,4.802,103.46,123.54481957023,3.28084,6,P-GPS,
187200,2026-06-24 10:57:24,12.8566569069521,100.97310686761,3.28084,,,123.54481957023,3.937008,2.7290668,3.5564961768,1.84154533452,26,5,8.293,123.54481957023,3.28084,2.7290668,3.5564961768,1.565858,-2.23694,0,301.7, -16.3, -0.6,,,0,0,1684,1024,1024,1024,100,0,0,0,312,0,0,88,4.157,4.154,0,0,0,0,4.802,103.46,123.54481957023,3.28084,6,P-GPS,
187300,2026-06-24 10:57:24,12.8566576194435,100.973105721727,3.28084,,,123.54481957023,3.937008,3.4225182,3.8782481556,2.32498038936,26,5,8.309,123.54481957023,3.28084,3.4225182,3.8782481556,1.789552,-2.908022,0,301.7, -16, -0.6,,,0,0,1684,1024,1024,1024,100,0,0,0,312,0,0,88,4.161,4.149,0,0,0,0,3.902,103.46,123.54481957023,3.28084,6,P-GPS,
187400,2026-06-24 10:57:24,12.8566584104749,100.973104403103,3.28084,,,123.54481957023,3.937008,4.026492,4.2876641792,2.87569891092,26,5,8.309,123.54481957023,3.28084,4.026492,4.2876641792,2.23694,-3.35541,0,301.7, -15.7, -0.4,,,0,0,1258,1024,1024,1024,35,0,0,0,312,0,0,88,4.161,4.149,0,0,0,0,3.902,103.46,123.54481957023,3.28084,6,P-GPS,
187500,2026-06-24 10:57:24,12.8566593464165,100.973102839468,3.28084,,,123.54481957023,3.937008,4.5186188,4.809875482,3.5283465696,26,5,8.309,123.54481957023,3.28084,4.5186188,4.809875482,2.460634,-3.802798,0,301.7, -14.9, -0.7,,,0,0,1024,1024,1024,1024,0,0,0,0,312,0,0,88,4.161,4.149,0,0,0,0,3.902,103.46,123.54481957023,3.28084,6,P-GPS,
187600,2026-06-24 10:57:24,12.8566605692526,100.973100651395,3.28084,,,123.54481957023,3.937008,5.033115,5.5856629084,4.4254594592,26,5,8.309,123.54481957023,3.28084,5.033115,5.5856629084,2.684328,-4.250186,0,301.8, -6.8, -0.4,,,0,0,1024,1024,1024,1024,0,0,0,0,312,0,0,88,4.161,4.149,0,0,0,0,3.902,103.46,123.54481957023,3.28084,6,P-GPS,
187700,2026-06-24 10:57:24,12.8566616977415,100.973098754713,3.28084,,,123.54481957023,3.937008,4.5186188,6.2866799912,5.2158138152,26,5,8.309,123.54481957023,3.28084,5.033115,6.2866799912,2.460634,-3.802798,0,301.5, 14.7, -0.6,,,0,0,1024,1024,1024,1024,0,0,0,0,312,0,0,88,4.161,4.149,0,0,0,0,3.902,103.46,123.54481957023,3.28084,6,P-GPS,
187800,2026-06-24 10:57:24,12.8566626874332,100.973097131052,2.952756,,,123.21673557023,3.937008,3.914645,6.903379486,5.8969490076,26,5,8.309,123.54481957023,3.28084,5.033115,6.903379486,2.013246,-3.35541,0,301.4, 19.2, -0.7,,,0,0,1024,581,1024,1024,0,-67,0,0,312,0,0,88,4.161,4.149,0,0,0,0,3.902,103.46,123.21673557023,2.952756,6,P-GPS,
187900,2026-06-24 10:57:24,12.8566635567943,100.973095726045,2.952756,,,123.21673557023,3.937008,3.1093466,7.4469162488,6.4888781604,26,5,8.309,123.54481957023,3.28084,5.033115,7.4469162488,1.565858,-2.684328,0,301.2, 17.2, -0.8,,,0,0,1024,581,1024,1024,0,-67,0,0,312,0,0,88,4.161,4.149,0,0,0,0,3.902,103.46,123.21673557023,2.952756,6,P-GPS,
188000,2026-06-24 10:57:25,12.8566641969454,100.973094659251,2.952756,,,123.21673557023,3.937008,1.9908766,7.862861144,6.9344490408,26,5,8.309,123.54481957023,3.28084,5.033115,7.862861144,0.894776,-1.789552,0,301.6, 13.2, -2.3,,,0,0,1024,801,1024,1024,0,-34,0,0,312,0,0,88,4.161,4.149,0,0,0,0,3.902,103.46,123.21673557023,2.952756,6,P-GPS,
188100,2026-06-24 10:57:25,12.8566642322387,100.97309438217,3.28084,,,123.54481957023,3.937008,1.4092722,7.9620409372,7.0338584928,26,5,8.309,123.54481957023,3.28084,5.033115,7.9620409372,0.447388,-1.342164,0,301.2, 7.4, -11.2,,,0,0,1024,1024,1024,1024,0,0,0,0,312,0,0,88,4.161,4.149,0,0,0,0,3.902,103.46,123.54481957023,3.28084,6,P-GPS,
188200,2026-06-24 10:57:25,12.8566641162129,100.973094170397,3.28084,,,123.54481957023,3.937008,1.3645334,8.0279858212,7.1202758184,26,5,8.309,123.54481957023,3.28084,5.033115,8.0279858212,0.223694,-1.342164,0,302.2, 5.4, -0.7,,,0,0,1024,1024,1024,1024,0,0,0,0,312,0,0,88,4.161,4.149,0,0,0,0,3.902,103.46,123.54481957023,3.28084,6,P-GPS,
188300,2026-06-24 10:57:25,12.8566641947324,100.973093712861,3.28084,,,123.54481957023,3.937008,1.3645334,8.1932089236,7.2854989208,26,5,8.299,123.54481957023,3.28084,5.033115,8.1932089236,0,-1.11847,0,302, 6.2, 1.6,,,0,0,1024,1024,1024,1024,0,0,0,0,312,0,0,88,4.156,4.143,0,0,0,0,4.488,103.46,123.54481957023,3.28084,6,P-GPS,
188400,2026-06-24 10:57:25,12.8566640681192,100.973093745554,3.28084,,,123.54481957023,3.937008,0.894776,8.1732942248,7.3331367176,26,5,8.299,123.54481957023,3.28084,5.033115,8.1932089236,0,-0.894776,0,301.9, 5.5, 1.6,,,0,0,1024,1024,1024,1024,0,0,0,0,312,0,0,88,4.156,4.143,0,0,0,0,4.488,103.46,123.54481957023,3.28084,6,P-GPS,
188500,2026-06-24 10:57:25,12.856664239609,100.973093218005,3.28084,,,123.54481957023,3.937008,0.671082,8.3692259896,7.5309385612,26,5,8.299,123.54481957023,3.28084,5.033115,8.3692259896,0,-0.671082,0,301.2, 4.7, 1.4,,,0,0,1024,1024,1024,1024,0,0,0,0,312,0,0,88,4.156,4.143,0,0,0,0,4.488,103.46,123.54481957023,3.28084,6,P-GPS,
188600,2026-06-24 10:57:25,12.8566643330654,100.97309287502,3.28084,,,123.54481957023,3.937008,0.447388,8.4954399044,7.6576117936,26,5,8.299,123.54481957023,3.28084,5.033115,8.4954399044,0,-0.447388,0,301.6, 3.5, 1,,,0,0,1024,1024,1024,1024,0,0,0,0,312,0,0,88,4.156,4.143,0,0,0,0,4.488,103.46,123.54481957023,3.28084,6,P-GPS,
188700,2026-06-24 10:57:25,12.8566642245467,100.973092948881,3.28084,,,123.54481957023,3.937008,0.223694,8.4623362288,7.7051511652,26,5,8.299,123.54481957023,3.28084,5.033115,8.4954399044,0,-0.223694,0,301.7, 2.9, 0.7,,,0,0,1129,1024,1024,1024,16,0,0,0,312,0,0,88,4.156,4.143,0,0,0,0,4.488,103.46,123.54481957023,3.28084,6,P-GPS,
188800,2026-06-24 10:57:25,12.8566640716806,100.973093122434,3.28084,,,123.54481957023,3.937008,0,8.3916013184,7.7883532676,26,5,8.299,123.54481957023,3.28084,5.033115,8.4954399044,0,0,0,301.7, 2.1, 0.2,,,0,0,1684,1024,1024,1024,100,0,0,0,312,0,0,88,4.156,4.143,0,0,0,0,4.488,103.46,123.54481957023,3.28084,6,P-GPS,
188900,2026-06-24 10:57:25,12.8566638022285,100.97309389608,3.28084,,,123.54481957023,3.937008,0,8.1035435664,8.0805776864,26,5,8.299,123.54481957023,3.28084,5.033115,8.4954399044,0,0,0,302.1, 1.4, -0.4,,,0,0,1684,1024,1024,1024,100,0,0,0,312,0,0,88,4.156,4.143,0,0,0,0,4.488,103.46,123.54481957023,3.28084,6,P-GPS,
189000,2026-06-24 10:57:25,12.8566637591708,100.973093971211,3.28084,,,123.54481957023,3.937008,0,8.0745409408,8.111548816,26,5,8.299,123.54481957023,3.28084,5.033115,8.4954399044,0,0,0,302, -8.8, -0.3,,,0,0,1684,1024,1024,1024,100,0,0,0,312,0,0,88,4.156,4.143,0,0,0,0,4.488,103.46,123.54481957023,3.28084,6,P-GPS,
189100,2026-06-24 10:57:26,12.8566638357142,100.973093911242,3.28084,,,123.54481957023,3.937008,0.3131716,8.1003283432,8.1466866124,26,5,8.299,123.54481957023,3.28084,5.033115,8.4954399044,0.223694,-0.223694,0,301.9, -15.7, -0.3,,,0,0,1684,1024,1024,1024,100,0,0,0,312,0,0,88,4.156,4.143,0,0,0,0,4.488,103.46,123.54481957023,3.28084,6,P-GPS,
189200,2026-06-24 10:57:26,12.8566641500161,100.973093567317,3.28084,,,123.54481957023,3.937008,1.006623,8.2410763792,8.3143703448,26,5,8.299,123.54481957023,3.28084,5.033115,8.4954399044,0.447388,-0.894776,0,301.7, -16.9, -0.2,,,0,0,1684,1024,1024,1024,100,0,0,0,312,0,0,88,4.156,4.143,0,0,0,0,4.488,103.46,123.54481957023,3.28084,6,P-GPS,
189300,2026-06-24 10:57:26,12.8566644569403,100.973093148137,3.28084,,,123.54481957023,3.937008,1.4987498,8.4085632612,8.5008532904,26,5,8.3,123.54481957023,3.28084,5.033115,8.4954399044,0.671082,-1.342164,0,301.8, -17, -0.5,,,0,0,1684,1024,1024,1024,100,0,0,0,312,0,0,88,4.153,4.142,0,0,0,0,4.319,103.64,123.54481957023,3.28084,6,P-GPS,
189400,2026-06-24 10:57:26,12.8566649065155,100.973092432967,3.28084,,,123.54481957023,3.937008,2.1027236,8.6905186508,8.8035435888,26,5,8.3,123.54481957023,3.28084,5.033115,8.6905186508,1.11847,-1.789552,0,301.8, -17, -0.6,,,0,0,1684,1024,1024,1024,100,0,0,0,312,0,0,88,4.153,4.142,0,0,0,0,4.319,103.64,123.54481957023,3.28084,6,P-GPS,
189500,2026-06-24 10:57:26,12.8566655575381,100.97309138645,3.28084,,,123.54481957023,3.937008,2.908022,9.1049543596,9.2451118444,26,5,8.3,123.54481957023,3.28084,5.033115,9.1049543596,1.565858,-2.460634,0,301.9, -16.9, -0.8,,,0,0,1684,1024,1024,1024,100,0,0,0,312,0,0,88,4.153,4.142,0,0,0,0,4.319,103.64,123.54481957023,3.28084,6,P-GPS,
189600,2026-06-24 10:57:26,12.8566661846673,100.973090299226,2.952756,,,123.21673557023,3.937008,3.4225182,9.5338257644,9.6944556908,26,5,8.3,123.54481957023,3.28084,5.033115,9.5338257644,1.789552,-2.908022,0,301.9, -16.9, -0.8,,,0,0,1684,1024,1024,1024,100,0,0,0,312,0,0,88,4.153,4.142,0,0,0,0,4.319,103.64,123.21673557023,2.952756,6,P-GPS,
189700,2026-06-24 10:57:26,12.8566671681188,100.973088366626,2.952756,,,123.21673557023,3.937008,4.2278166,10.288222114,10.4698822248,26,5,8.3,123.54481957023,3.28084,5.033115,10.288222114,2.23694,-3.579104,0,301.9, -16.3, -0.8,,,0,0,1684,1024,1024,1024,100,0,0,0,312,0,0,88,4.153,4.142,0,0,0,0,4.319,103.64,123.21673557023,2.952756,6,P-GPS,
189800,2026-06-24 10:57:26,12.8566681996901,100.973086638774,2.952756,,,123.21673557023,3.937008,4.7199434,10.9801840784,11.1905843476,26,5,8.3,123.54481957023,3.28084,5.033115,10.9801840784,2.460634,-4.026492,0,301.8, -16, -0.7,,,0,0,1684,1024,1024,1024,100,0,0,0,312,0,0,88,4.153,4.142,0,0,0,0,4.319,103.64,123.21673557023,2.952756,6,P-GPS,
189900,2026-06-24 10:57:26,12.8566693793186,100.973084680388,2.952756,,,123.21673557023,3.937008,5.2120702,11.7697182244,12.0094163948,26,5,8.3,123.54481957023,3.28084,5.2120702,11.7697182244,2.684328,-4.47388,0,301.7, -15.7, -0.5,,,0,0,1684,1024,1024,1024,100,0,0,0,312,0,0,88,4.153,4.142,0,0,0,0,4.319,103.64,123.21673557023,2.952756,6,P-GPS,
190000,2026-06-24 10:57:26,12.8566704686304,100.973082870928,2.952756,,,123.21673557023,3.608924,5.4133948,12.5024938384,12.7658796736,26,5,8.3,123.54481957023,3.28084,5.4133948,12.5024938384,2.684328,-4.697574,0,301.7, -15.7, -0.7,,,0,0,1684,1024,1024,1024,100,0,0,0,312,0,0,88,4.153,4.142,0,0,0,0,4.319,103.64,123.21673557023,2.952756,6,P-GPS,
190100,2026-06-24 10:57:27,12.8566714979247,100.973081112584,2.952756,,,123.21673557023,3.608924,5.8384134,13.213747142,13.495407256,26,5,8.3,123.54481957023,3.28084,5.8384134,13.213747142,3.131716,-4.921268,0,301.7, -16.1, -0.5,,,0,0,1684,1024,1024,1024,100,0,0,0,312,0,0,88,4.153,4.142,0,0,0,0,4.319,103.64,123.21673557023,2.952756,6,P-GPS,
190200,2026-06-24 10:57:27,12.8566726217888,100.973079195586,2.952756,,,123.21673557023,3.608924,6.2186932,13.9915030724,14.2910765728,26,5,8.3,123.54481957023,3.28084,6.2186932,13.9915030724,3.131716,-5.368656,0,301.9, -16.6, -0.6,,,0,0,1684,1024,1024,1024,100,0,0,0,312,0,0,88,4.153,4.142,0,0,0,0,4.319,103.64,123.21673557023,2.952756,6,P-GPS,
190300,2026-06-24 10:57:27,12.8566740615918,100.973076676343,2.952756,,,123.21673557023,3.608924,6.5318648,15.0118443124,15.3297905168,26,5,8.287,123.54481957023,3.28084,6.5318648,15.0118443124,3.35541,-5.59235,0,301.9, -16.7, -0.6,,,0,0,1024,1024,1024,1024,0,0,0,0,312,0,0,88,4.15,4.139,0,0,0,0,4.48,103.64,123.21673557023,2.952756,6,P-GPS,
190400,2026-06-24 10:57:27,12.8566757087531,100.973073894746,2.952756,,,123.21673557023,3.608924,7.1358386,16.1485897556,16.4874349108,26,5,8.287,123.54481957023,3.28084,7.1358386,16.1485897556,3.802798,-6.039738,0,301.9, -13.4, -0.6,,,0,0,1024,1024,1024,1024,0,0,0,0,312,0,0,88,4.15,4.139,0,0,0,0,4.48,103.64,123.21673557023,2.952756,6,P-GPS,
190500,2026-06-24 10:57:27,12.8566775398285,100.973070896113,2.952756,,,123.21673557023,3.608924,7.1358386,17.3845478004,17.7459979432,26,5,8.287,123.54481957023,3.28084,7.1358386,17.3845478004,3.802798,-6.039738,0,301.6, 9.9, -0.6,,,0,0,1024,1024,1024,1024,0,0,0,0,312,0,0,88,4.15,4.139,0,0,0,0,4.48,103.64,123.21673557023,2.952756,6,P-GPS,
190600,2026-06-24 10:57:27,12.856679658849,100.973067282027,2.624672,,,122.88865157023,3.608924,6.0173686,18.8659454856,19.2460964164,26,5,8.287,123.54481957023,3.28084,7.1358386,18.8659454856,3.131716,-5.144962,0,301.5, 22.5, -0.5,,,0,0,1047,1024,1024,1024,3,0,0,0,312,0,0,88,4.15,4.139,0,0,0,0,4.48,103.64,122.88865157023,2.624672,6,P-GPS,
190700,2026-06-24 10:57:27,12.8566804532422,100.973065891492,2.624672,,,122.88865157023,3.608924,5.033115,19.433727656,19.819390398,26,5,8.287,123.54481957023,3.28084,7.1358386,19.433727656,2.684328,-4.250186,0,301.1, 22.8, -0.7,,,0,0,1684,1024,1024,1024,100,0,0,0,312,0,0,88,4.15,4.139,0,0,0,0,4.48,103.64,122.88865157023,2.624672,6,P-GPS,
190800,2026-06-24 10:57:27,12.8566806916653,100.973065364247,2.624672,,,122.88865157023,3.608924,3.914645,19.6402893424,20.0261161264,26,5,8.287,123.54481957023,3.28084,7.1358386,19.6402893424,2.013246,-3.35541,0,301.3, 18.2, -1.3,,,0,0,1024,1024,1024,1024,0,0,0,0,312,0,0,88,4.15,4.139,0,0,0,0,4.48,103.64,122.88865157023,2.624672,6,P-GPS,
190900,2026-06-24 10:57:27,12.8566810701971,100.97306467818,2.624672,,,122.88865157023,3.608924,3.4225182,19.9187014248,20.3065295212,26,5,8.287,123.54481957023,3.28084,7.1358386,19.9187014248,1.789552,-2.908022,0,301.9, 0, -1.4,,,0,0,1024,1024,1024,1024,0,0,0,0,312,0,0,88,4.15,4.139,0,0,0,0,4.48,103.64,122.88865157023,2.624672,6,P-GPS,
191000,2026-06-24 10:57:27,12.8566805055482,100.973065381171,2.624672,,,122.88865157023,3.608924,3.4225182,19.60876047,20.6305124712,26,5,8.287,123.54481957023,3.28084,7.1358386,19.9187014248,1.789552,-2.908022,0,301.9, -4.3, -0.8,,,0,0,1024,1024,1024,1024,0,0,0,0,312,0,0,88,4.15,4.139,0,0,0,0,4.48,103.64,122.88865157023,2.624672,6,P-GPS,
191100,2026-06-24 10:57:28,12.856681872539,100.97306326848,2.624672,,,122.88865157023,3.608924,3.4225182,20.4943904196,21.5324481956,26,5,8.287,123.54481957023,3.28084,7.1358386,20.4943904196,1.789552,-2.908022,0,301.7, 10.4, -0.5,,,0,0,1024,1024,1024,822,0,0,0,-31,312,0,0,88,4.15,4.139,0,0,0,0,4.48,103.64,122.88865157023,2.624672,6,P-GPS,
191200,2026-06-24 10:57:28,12.8566833940594,100.973060948778,2.624672,,,122.88865157023,3.608924,2.908022,21.4713261464,22.5269364164,26,5,8.287,123.54481957023,3.28084,7.1358386,21.4713261464,1.565858,-2.460634,0,301.6, 14.2, -0.8,,,0,0,1024,1024,1024,364,0,0,0,-100,311.9,0,0,88,4.15,4.139,0,0,0,0,4.48,103.64,122.88865157023,2.624672,6,P-GPS,
191300,2026-06-24 10:57:28,12.856684505106,100.973059237262,2.624672,,,122.88865157023,3.608924,2.4158952,22.191437718,23.2583340776,26,5,8.287,123.54481957023,3.28084,7.1358386,22.191437718,1.342164,-2.013246,0,300.7, 13, -0.9,,,0,0,1024,1024,1024,1024,0,0,0,0,309.4,0,0,88,4.15,4.139,0,0,0,0,4.48,103.64,122.88865157023,2.624672,6,P-GPS,
191400,2026-06-24 10:57:28,12.8566867058113,100.973055915256,2.952756,,,123.21673557023,3.608924,1.9237684,23.597769784,24.6869430472,26,5,8.29,123.54481957023,3.28084,7.1358386,23.597769784,1.11847,-1.565858,0,297, 11.1, -1.9,,,0,0,1024,1024,1024,364,0,0,0,-100,305.3,0,0,88,4.145,4.134,0,0,0,0,4.487,103.46,123.21673557023,2.952756,6,P-GPS,
191500,2026-06-24 10:57:28,12.856687161638,100.973055167714,2.952756,,,123.21673557023,3.608924,1.4316416,23.9086621824,25.0005913512,27,5,8.29,123.54481957023,3.28084,7.1358386,23.9086621824,0.894776,-1.11847,0,294, 9, -2.5,,,0,0,1024,1024,1024,364,0,0,0,-100,303.1,0,0,88,4.145,4.134,0,0,0,0,4.487,103.46,123.21673557023,2.952756,6,P-GPS,
191600,2026-06-24 10:57:28,12.8566874699586,100.973054745792,2.952756,,,123.21673557023,3.608924,1.11847,24.091864288,25.1881241656,27,5,8.29,123.54481957023,3.28084,7.1358386,24.091864288,0.671082,-0.894776,0,292.1, 7, -2.3,,,0,0,1024,1024,1024,364,0,0,0,-100,300.2,0,0,88,4.145,4.134,0,0,0,0,4.487,103.46,123.21673557023,2.952756,6,P-GPS,
191700,2026-06-24 10:57:28,12.856687705312,100.973054454652,2.952756,,,123.21673557023,3.608924,0.6263432,24.221785552,25.322671414,27,5,8.29,123.54481957023,3.28084,7.1358386,24.221785552,0.447388,-0.447388,0,288.1, 5.2, -2.1,,,0,0,1024,1024,1024,706,0,0,0,-48,295.7,0,0,88,4.145,4.134,0,0,0,0,4.487,103.46,123.21673557023,2.952756,6,P-GPS,
191800,2026-06-24 10:57:28,12.8566874961562,100.973055215833,2.952756,,,123.21673557023,3.608924,0.3131716,23.9439312124,25.6039706356,27,5,8.29,123.54481957023,3.28084,7.1358386,24.221785552,0.223694,-0.223694,0,283.5, 3.9, -2.3,,,0,0,1024,1024,1024,364,0,0,0,-100,291,0,0,88,4.145,4.134,0,0,0,0,4.487,103.46,123.21673557023,2.952756,6,P-GPS,
191900,2026-06-24 10:57:28,12.8566875451643,100.973055195341,2.952756,,,123.21673557023,3.608924,0.3131716,23.9580388244,25.6232947832,27,5,8.29,123.54481957023,3.28084,7.1358386,24.221785552,0.223694,-0.223694,0,279.3, 2.8, -2,,,0,0,1024,1024,1024,364,0,0,0,-100,288,0,0,88,4.145,4.134,0,0,0,0,4.487,103.46,123.21673557023,2.952756,6,P-GPS,
192000,2026-06-24 10:57:29,12.8566875710883,100.973055158803,2.952756,,,123.21673557023,3.608924,0.3131716,23.9737868564,25.6393380908,27,5,8.29,123.54481957023,3.28084,7.1358386,24.221785552,0.223694,-0.223694,0,277.1, 2, -1.8,,,0,0,1024,1024,1024,364,0,0,0,-100,285.1,0,0,88,4.145,4.134,0,0,0,0,4.487,103.46,123.21673557023,2.952756,6,P-GPS,
192100,2026-06-24 10:57:29,12.8566873931238,100.97305548134,2.952756,,,123.21673557023,3.608924,0,23.8424220228,25.7711950504,27,5,8.29,123.54481957023,3.28084,7.1358386,24.221785552,0,0,0,273.1, 1.6, -1.5,,,0,0,1024,1024,1024,1024,0,0,0,0,280.7,0,0,88,4.145,4.134,0,0,0,0,4.487,103.46,123.21673557023,2.952756,6,P-GPS,
192200,2026-06-24 10:57:29,12.8566872639173,100.973055761321,2.952756,,,123.21673557023,3.608924,0,23.7322514156,25.8813656576,27,5,8.29,123.54481957023,3.28084,7.1358386,24.221785552,0,0,0,268.8, 1.2, -1.3,,,0,0,1024,1024,1024,364,0,0,0,-100,277.5,0,0,88,4.145,4.134,0,0,0,0,4.487,103.46,123.21673557023,2.952756,6,P-GPS,
192300,2026-06-24 10:57:29,12.8566870945087,100.973056467669,2.952756,,,123.21673557023,3.608924,0,23.4782487828,26.1400927,27,5,8.29,123.54481957023,3.28084,7.1358386,24.221785552,0,0,0,266.8, 0.6, -1.6,,,0,0,1024,1024,1024,364,0,0,0,-100,275.8,0,0,88,4.145,4.134,0,0,0,0,4.487,103.46,123.21673557023,2.952756,6,P-GPS,
192400,2026-06-24 10:57:29,12.856687142941,100.973056523776,3.28084,,,123.54481957023,3.608924,0,23.4676188612,26.1667659292,27,5,8.284,123.54481957023,3.28084,7.1358386,24.221785552,0,0,0,264.5, 0.1, -1.1,,,0,0,1024,1024,1024,1018,0,0,0,-1,272.4,0,0,87,4.147,4.135,0,0,0,0,4.381,103.64,123.54481957023,3.28084,6,P-GPS,
192500,2026-06-24 10:57:29,12.8566872020348,100.973056581526,3.28084,,,123.54481957023,3.608924,0,23.4580716168,26.196523148,27,5,8.284,123.54481957023,3.28084,7.1358386,24.221785552,0,0,0,260.1, -0.2, -1.1,,,0,0,1024,1024,1024,1024,0,0,0,0,268,0,0,87,4.147,4.135,0,0,0,0,4.381,103.64,123.54481957023,3.28084,6,P-GPS,
192600,2026-06-24 10:57:29,12.8566871786618,100.973056687307,3.28084,,,123.54481957023,3.608924,0,23.4203747652,26.2351058264,27,5,8.284,123.54481957023,3.28084,7.1358386,24.221785552,0,0,0,256.4, -0.3, -1,,,0,0,1024,1024,1024,1024,0,0,0,0,265.2,0,0,87,4.147,4.135,0,0,0,0,4.381,103.64,123.54481957023,3.28084,6,P-GPS,
192700,2026-06-24 10:57:29,12.8566873906249,100.973056606192,3.28084,,,123.54481957023,3.608924,0,23.47933146,26.3176517608,27,5,8.284,123.54481957023,3.28084,7.1358386,24.221785552,0,0,0,254.6, 0, -1.1,,,0,0,1024,1024,1024,1024,0,0,0,0,263.9,0,0,87,4.147,4.135,0,0,0,0,4.381,103.64,123.54481957023,3.28084,6,P-GPS,
192800,2026-06-24 10:57:29,12.8566874094286,100.973056619627,3.28084,,,123.54481957023,3.608924,0,23.4779206988,26.3260179028,27,5,8.284,123.54481957023,3.28084,7.1358386,24.221785552,0,0,0,253.9, -0.1, -0.8,,,0,0,1024,1024,1024,1024,0,0,0,0,263.9,0,0,87,4.147,4.135,0,0,0,0,4.381,103.64,123.54481957023,3.28084,6,P-GPS,
192900,2026-06-24 10:57:29,12.8566873773775,100.973056689486,3.28084,,,123.54481957023,3.608924,0,23.450460068,26.3534785336,27,5,8.284,123.54481957023,3.28084,7.1358386,24.221785552,0,0,0,253.8, -0.3, -0.3,,,0,0,1304,1024,1024,1024,42,0,0,0,263.9,0,0,87,4.147,4.135,0,0,0,0,4.381,103.64,123.54481957023,3.28084,6,P-GPS,
193000,2026-06-24 10:57:30,12.856687348274,100.973056734609,3.28084,,,123.54481957023,3.608924,0,23.4313983876,26.3727370644,27,5,8.284,123.54481957023,3.28084,7.1358386,24.221785552,0,0,0,253.7, -1.6, -0.1,,,0,0,1684,1024,1024,1024,100,0,0,0,263.9,0,0,87,4.147,4.135,0,0,0,0,4.381,103.64,123.54481957023,3.28084,6,P-GPS,
193100,2026-06-24 10:57:30,12.8566876001983,100.973056302143,3.28084,,,123.54481957023,3.608924,0,23.60974485,26.5519365452,27,5,8.284,123.54481957023,3.28084,7.1358386,24.221785552,0,0,0,253.7, -11.2, 0,,,0,0,1024,1024,1024,1024,0,0,0,0,263.9,0,0,87,4.147,4.135,0,0,0,0,4.381,103.64,123.54481957023,3.28084,6,P-GPS,
193200,2026-06-24 10:57:30,12.8566875271252,100.973056208866,3.28084,,,123.54481957023,3.608924,0.4921268,23.6284128296,26.59448904,27,5,8.284,123.54481957023,3.28084,7.1358386,24.221785552,-0.223694,-0.447388,0,253.6, -12.9, 0,,,0,0,1620,1024,1024,1024,90,0,0,0,263.9,0,0,87,4.147,4.135,0,0,0,0,4.381,103.64,123.54481957023,3.28084,6,P-GPS,
193300,2026-06-24 10:57:30,12.8566874092047,100.973055955906,3.28084,,,123.54481957023,3.608924,0.7158208,23.6917330416,26.694226576,27,5,8.284,123.54481957023,3.28084,7.1358386,24.221785552,-0.223694,-0.671082,0,253.6, 1, -0.3,,,0,0,1684,1024,1024,1024,100,0,0,0,263.9,0,0,87,4.147,4.135,0,0,0,0,4.381,103.64,123.54481957023,3.28084,6,P-GPS,
193400,2026-06-24 10:57:30,12.8566872573018,100.973055611805,3.28084,,,123.54481957023,3.608924,0.7158208,23.77952832,26.828576974,27,5,8.282,123.54481957023,3.28084,7.1358386,24.221785552,-0.223694,-0.671082,0,253.7, -7.7, -0.5,,,0,0,1024,1024,1024,1024,0,0,0,0,263.9,0,0,87,4.145,4.134,0,0,0,0,4.259,103.64,123.54481957023,3.28084,6,P-GPS,
193500,2026-06-24 10:57:30,12.8566870906403,100.973055018435,3.28084,,,123.54481957023,3.608924,1.2079476,23.9462934172,27.048229212,27,5,8.282,123.54481957023,3.28084,7.1358386,24.221785552,-0.447388,-1.11847,0,253.8, -13.4, -0.4,,,0,0,1684,1024,1024,1024,100,0,0,0,263.9,0,0,87,4.145,4.134,0,0,0,0,4.259,103.64,123.54481957023,3.28084,6,P-GPS,
193600,2026-06-24 10:57:30,12.8566868648834,100.973054447578,3.28084,,,123.54481957023,3.608924,1.4092722,24.0978026084,27.2673565156,27,5,8.282,123.54481957023,3.28084,7.1358386,24.221785552,-0.447388,-1.342164,0,253.8, 1.8, -0.3,,,0,0,1024,1024,1024,1024,0,0,0,0,263.9,0,0,87,4.145,4.134,0,0,0,0,4.259,103.64,123.54481957023,3.28084,6,P-GPS,
193700,2026-06-24 10:57:30,12.8566866269246,100.973053851054,3.28084,,,123.54481957023,3.608924,1.4092722,24.2569561568,27.4966216148,27,5,8.282,123.54481957023,3.28084,7.1358386,24.2569561568,-0.447388,-1.342164,0,253.7, -7.3, -0.1,,,0,0,1024,1024,1024,1024,0,0,0,0,263.9,0,0,87,4.145,4.134,0,0,0,0,4.259,103.64,123.54481957023,3.28084,6,P-GPS,
193800,2026-06-24 10:57:30,12.8566864101632,100.973053066288,3.28084,,,123.54481957023,3.608924,1.6329662,24.481792122,27.786746296,27,5,8.282,123.54481957023,3.28084,7.1358386,24.481792122,-0.447388,-1.565858,0,253.5, 0, -0.3,,,0,0,1684,931,1024,1024,100,-14,0,0,263.9,0,0,87,4.145,4.134,0,0,0,0,4.259,103.64,123.54481957023,3.28084,6,P-GPS,
193900,2026-06-24 10:57:30,12.8566861896287,100.973052291645,3.28084,,,123.54481957023,3.608924,1.6329662,24.7041346488,28.0737869876,27,5,8.282,123.54481957023,3.28084,7.1358386,24.7041346488,-0.447388,-1.565858,0,253.6, -1.7, -0.5,,,0,0,1024,1024,1024,1024,0,0,0,0,263.9,0,0,87,4.145,4.134,0,0,0,0,4.259,103.64,123.54481957023,3.28084,6,P-GPS,
194000,2026-06-24 10:57:31,12.8566860590455,100.973051388778,3.28084,,,123.54481957023,3.937008,1.7000744,24.9824811144,28.398458914,27,5,8.282,123.54481957023,3.28084,7.1358386,24.9824811144,-0.671082,-1.565858,0,253.6, -6.5, -0.7,,,0,0,1684,1024,1024,1024,100,0,0,0,263.9,0,0,87,4.145,4.134,0,0,0,0,4.259,103.64,123.54481957023,3.28084,6,P-GPS,
194100,2026-06-24 10:57:31,12.8566857851176,100.973050896849,3.28084,,,123.54481957023,3.937008,1.7000744,25.106792142,28.5999681068,26,5,8.282,123.54481957023,3.28084,7.1358386,25.106792142,-0.671082,-1.565858,0,253.7, -0.7, 0,,,0,0,1024,1024,1024,1024,0,0,0,0,263.9,0,0,87,4.145,4.134,0,0,0,0,4.259,103.64,123.54481957023,3.28084,6,P-GPS,
194200,2026-06-24 10:57:31,12.856685336618,100.973050057531,3.28084,,,123.54481957023,3.937008,1.901399,25.3236884744,28.9404208736,26,5,8.282,123.54481957023,3.28084,7.1358386,25.3236884744,-0.671082,-1.789552,0,253.6, -8.3, 0.6,,,0,0,1024,1024,1024,1684,0,0,0,100,263.9,0,0,87,4.145,4.134,0,0,0,0,4.259,103.64,123.54481957023,3.28084,6,P-GPS,
194300,2026-06-24 10:57:31,12.8566848707601,100.973049158206,3.28084,,,123.54481957023,3.937008,1.7000744,25.56102444,29.302658418,26,5,8.282,123.54481957023,3.28084,7.1358386,25.56102444,-0.671082,-1.565858,0,253.6, 5, 0.6,,,0,0,1024,1024,1024,1447,0,0,0,64,264,0,0,87,4.145,4.134,0,0,0,0,4.259,103.64,123.54481957023,3.28084,6,P-GPS,
194400,2026-06-24 10:57:31,12.8566844747665,100.973048551453,3.28084,,,123.54481957023,3.937008,1.4092722,25.7124023976,29.5624025208,26,5,8.267,123.54481957023,3.28084,7.1358386,25.7124023976,-0.447388,-1.342164,0,254.5, 8, 0.7,,,0,0,1024,1024,1024,1024,0,0,0,0,266.3,0,0,87,4.138,4.127,0,0,0,0,4.479,103.64,123.54481957023,3.28084,6,P-GPS,
194500,2026-06-24 10:57:31,12.8566842202468,100.973048017784,3.28084,,,123.54481957023,3.937008,1.2079476,25.8586622448,29.7737214252,26,5,8.267,123.54481957023,3.28084,7.1358386,25.8586622448,-0.447388,-1.11847,0,258, 7.4, 1.1,,,0,0,1419,1024,1024,1684,60,0,0,100,269.6,0,0,87,4.138,4.127,0,0,0,0,4.479,103.64,123.54481957023,3.28084,6,P-GPS,
194600,2026-06-24 10:57:31,12.8566839708657,100.973047580898,3.28084,,,123.54481957023,3.937008,0.9171454,25.9740165792,29.9538067328,26,5,8.267,123.54481957023,3.28084,7.1358386,25.9740165792,-0.223694,-0.894776,0,260, 6.2, 1.4,,,0,0,1419,1024,1024,1684,60,0,0,100,271,0,0,87,4.138,4.127,0,0,0,0,4.479,103.64,123.54481957023,3.28084,6,P-GPS,
194700,2026-06-24 10:57:31,12.8566839873748,100.973047658357,3.28084,,,123.54481957023,3.937008,0.4921268,25.9500992556,29.9819891484,26,5,8.267,123.54481957023,3.28084,7.1358386,25.9740165792,-0.223694,-0.447388,0,261.3, 3.5, 1.4,,,0,0,1684,1024,1024,1024,100,0,0,0,273.1,0,0,87,4.138,4.127,0,0,0,0,4.479,103.64,123.54481957023,3.28084,6,P-GPS,
194800,2026-06-24 10:57:31,12.8566842084011,100.97304793564,3.28084,,,123.54481957023,3.937008,0.7158208,25.8846464976,30.1093841656,26,5,8.267,123.54481957023,3.28084,7.1358386,25.9740165792,-0.223694,-0.671082,0,264, -8.8, 0.8,,,0,0,1279,1024,1024,1024,39,0,0,0,275.7,0,0,87,4.138,4.127,0,0,0,0,4.479,103.64,123.54481957023,3.28084,6,P-GPS,
194900,2026-06-24 10:57:31,12.8566839951388,100.973047475793,3.28084,,,123.54481957023,3.937008,0.9171454,26.0122055568,30.290519342,25,5,8.267,123.54481957023,3.28084,7.1358386,26.0122055568,-0.223694,-0.894776,0,265.7, -5.4, 0.4,,,0,0,1318,1024,1024,1024,45,0,0,0,276.9,0,0,87,4.138,4.127,0,0,0,0,4.479,103.64,123.54481957023,3.28084,6,P-GPS,
195000,2026-06-24 10:57:31,12.8566838379341,100.97304708069,3.28084,,,123.54481957023,3.937008,0.9171454,26.1254601536,30.4423238088,25,5,8.267,123.54481957023,3.28084,7.1358386,26.1254601536,-0.223694,-1.11847,0,266.4, -8, 0.3,,,0,0,1099,1024,1024,1684,11,0,0,100,277.1,0,0,87,4.138,4.127,0,0,0,0,4.479,103.64,123.54481957023,3.28084,6,P-GPS,
195100,2026-06-24 10:57:32,12.8566836888086,100.973046621537,3.28084,,,123.54481957023,3.937008,1.3645334,26.2615822052,30.6144694836,27,5,8.267,123.54481957023,3.28084,7.1358386,26.2615822052,-0.223694,-1.342164,0,266.7, -4.3, 0,,,0,0,1684,1024,1024,1684,100,0,0,100,277.8,0,0,87,4.138,4.127,0,0,0,0,4.479,103.64,123.54481957023,3.28084,6,P-GPS,
195200,2026-06-24 10:57:32,12.856683483511,100.973045636606,3.28084,,,123.54481957023,3.937008,1.3645334,26.5684719788,30.9727372116,27,5,8.267,123.54481957023,3.28084,7.1358386,26.5684719788,-0.223694,-1.342164,0,269.1, -3.7, 0.3,,,0,0,1024,1024,1024,1243,0,0,0,33,281.5,0,0,87,4.138,4.127,0,0,0,0,4.479,103.64,123.54481957023,3.28084,6,P-GPS,
195300,2026-06-24 10:57:32,12.856683290816,100.973044876084,3.28084,,,123.54481957023,3.937008,1.5882274,26.802330254,31.2522319712,27,5,8.267,123.54481957023,3.28084,7.1358386,26.802330254,-0.223694,-1.565858,0,273.5, -9.1, -0.1,,,0,0,1684,1024,1024,1024,100,0,0,0,286.2,0,0,87,4.138,4.127,0,0,0,0,4.479,103.64,123.54481957023,3.28084,6,P-GPS,
195400,2026-06-24 10:57:32,12.8566831633016,100.97304411399,3.28084,,,123.54481957023,3.937008,1.8119214,27.0450139888,31.5272647884,27,5,8.271,123.54481957023,3.28084,7.1358386,27.0450139888,-0.223694,-1.789552,0,278, 2.5, 1.5,,,0,0,1684,1024,1024,1024,100,0,0,0,289.7,0,0,87,4.144,4.132,0,0,0,0,4.527,103.64,123.54481957023,3.28084,6,P-GPS,
195500,2026-06-24 10:57:32,12.8566830597337,100.973043303961,3.28084,,,123.54481957023,3.937008,1.8119214,27.3072187216,31.8178815956,27,5,8.271,123.54481957023,3.28084,7.1358386,27.3072187216,-0.223694,-1.789552,0,279.8, -7.1, 1.1,,,0,0,1024,1024,1024,1684,0,0,0,100,291.3,0,0,87,4.144,4.132,0,0,0,0,4.527,103.64,123.54481957023,3.28084,6,P-GPS,
195600,2026-06-24 10:57:32,12.8566829765813,100.973042463958,3.28084,,,123.54481957023,3.937008,1.789552,27.5824155808,32.1182096892,27,5,8.271,123.54481957023,3.28084,7.1358386,27.5824155808,0,-1.789552,0,281.3, 2.6, 1,,,0,0,1055,1024,1024,1024,5,0,0,0,293.5,0,0,87,4.144,4.132,0,0,0,0,4.527,103.64,123.54481957023,3.28084,6,P-GPS,
195700,2026-06-24 10:57:32,12.8566829624326,100.973041354001,3.28084,,,123.54481957023,3.937008,1.565858,27.9572843592,32.5130587832,27,5,8.271,123.54481957023,3.28084,7.1358386,27.9572843592,0,-1.565858,0,284.6, 5.6, 1.8,,,0,0,1024,1024,1024,1024,0,0,0,0,296.5,0,0,87,4.144,4.132,0,0,0,0,4.527,103.64,123.54481957023,3.28084,6,P-GPS,
195800,2026-06-24 10:57:32,12.8566828750316,100.97304070101,3.28084,,,123.54481957023,3.937008,1.342164,28.1695218988,32.7475076096,27,5,8.271,123.54481957023,3.28084,7.1358386,28.1695218988,0,-1.342164,0,286.9, 6.1, 1.9,,,0,0,1024,1024,1024,1024,0,0,0,0,298.1,0,0,87,4.144,4.132,0,0,0,0,4.527,103.64,123.54481957023,3.28084,6,P-GPS,
195900,2026-06-24 10:57:32,12.8566827777239,100.973040156189,3.28084,,,123.54481957023,3.937008,1.11847,28.3442594372,32.94455486,27,5,8.271,123.54481957023,3.28084,7.1358386,28.3442594372,0,-1.11847,0,287.9, 6.3, 2.4,,,0,0,1024,1024,1217,1433,0,0,29,62,298.3,0,0,87,4.144,4.132,0,0,0,0,4.527,103.64,123.54481957023,3.28084,6,P-GPS,
196000,2026-06-24 10:57:32,12.8566826983486,100.973039751983,3.28084,,,123.54481957023,3.937008,0.671082,28.4733276828,33.091208408,27,5,8.271,123.54481957023,3.28084,7.1358386,28.4733276828,0,-0.671082,0,287.9, 5.8, 2.5,,,0,0,1024,1024,1684,1024,0,0,100,0,298.4,0,0,87,4.144,4.132,0,0,0,0,4.527,103.64,123.54481957023,3.28084,6,P-GPS,
196100,2026-06-24 10:57:33,12.8566826758647,100.973040167217,3.28084,,,123.54481957023,3.937008,0.447388,28.3296596992,33.239174292,27,5,8.271,123.54481957023,3.28084,7.1358386,28.4733276828,0,-0.447388,-0.223694,288.4, 4.4, 1.5,,,0,0,1024,1024,1684,1024,0,0,100,0,299.3,0,0,87,4.144,4.132,0,0,0,0,4.527,103.64,123.54481957023,3.28084,6,P-GPS,
196200,2026-06-24 10:57:33,12.8566826699323,100.973040010347,3.28084,,,123.54481957023,3.937008,0.223694,28.3824156064,33.294948572,27,5,8.271,123.54481957023,3.28084,7.1358386,28.4733276828,0,-0.223694,-0.894776,289.2, 2.8, 1,,,0,0,1024,1024,1684,1024,0,0,100,0,299.8,0,0,87,4.144,4.132,0,0,0,0,4.527,103.64,123.54481957023,3.28084,6,P-GPS,
196300,2026-06-24 10:57:33,12.8566826573216,100.973039705455,3.608924,,,123.87290357023,4.265092,0,28.4848434312,33.403544376,27,5,8.271,123.87290357023,3.608924,7.1358386,28.4848434312,0,0,-1.565858,289.5, 1.5, 0.7,,,0,0,1024,1024,1684,1024,0,0,100,0,299.9,0,0,87,4.144,4.132,0,0,0,0,4.527,103.64,123.87290357023,3.608924,6,P-GPS,
196400,2026-06-24 10:57:33,12.8566826085546,100.973039652617,3.937008,,,124.20098757023,4.593176,0,28.4976715156,33.429463012,27,5,8.263,124.20098757023,3.937008,7.1358386,28.4976715156,0,0,-2.460634,289.5, 0.7, 0.3,,,0,0,1024,1024,1684,1024,0,0,100,0,299.9,0,0,87,4.139,4.11,0,0,0,0,4.507,103.82,124.20098757023,3.937008,6,P-GPS,
196500,2026-06-24 10:57:33,12.8566825671392,100.973039342259,4.593176,,,124.85715557023,5.249344,0,28.5990166632,33.540683488,27,5,8.263,124.85715557023,4.593176,7.1358386,28.5990166632,0,0,-3.35541,289.6, 0.6, 0.2,,,0,0,1024,1024,1327,1024,0,0,46,0,299.9,0,0,87,4.139,4.11,0,0,0,0,4.507,103.82,124.85715557023,4.593176,6,P-GPS,
196600,2026-06-24 10:57:33,12.8566825220521,100.97303936319,4.92126,,,125.18523957023,5.577428,0,28.5871400224,33.558728108,27,5,8.263,125.18523957023,4.92126,7.1358386,28.5990166632,0,0,-4.026492,289.7, 0.5, -0.1,,,0,0,1024,1024,1024,1024,0,0,0,0,299.9,0,0,87,4.139,4.11,0,0,0,0,4.507,103.82,125.18523957023,4.92126,6,P-GPS,
196700,2026-06-24 10:57:33,12.8566825276238,100.973039541422,5.577428,,,125.84140757023,6.233596,0,28.5270022252,33.622376404,27,5,8.263,125.84140757023,5.577428,7.1358386,28.5990166632,0,0,-3.579104,289.7, 0.3, -0.2,,,0,0,1024,1024,1596,1024,0,0,87,0,299.9,0,0,87,4.139,4.11,0,0,0,0,4.507,103.82,125.84140757023,5.577428,6,P-GPS,
196800,2026-06-24 10:57:33,12.8566825593023,100.973039831069,5.905512,,,126.16949157023,6.889764,0,28.4317266316,33.726050948,26,5,8.263,126.16949157023,5.905512,7.1358386,28.5990166632,0,0,-3.131716,289.7, 0, -0.3,,,0,0,1024,1024,1684,1024,0,0,100,0,299.9,0,0,87,4.139,4.11,0,0,0,0,4.507,103.82,126.16949157023,5.905512,6,P-GPS,
196900,2026-06-24 10:57:33,12.8566826836438,100.973040359694,6.56168,,,126.82565957023,7.217848,0,28.2650271512,33.919292424,26,5,8.263,126.82565957023,6.56168,7.1358386,28.5990166632,0,0,-3.35541,289.7, -0.4, -0.5,,,0,0,1024,1024,1684,1024,0,0,100,0,299.9,0,0,87,4.139,4.11,0,0,0,0,4.507,103.82,126.82565957023,6.56168,6,P-GPS,
197000,2026-06-24 10:57:33,12.8566826944697,100.973040420107,6.889764,,,127.15374357023,7.545932,0,28.2456045784,33.941274052,26,5,8.263,127.15374357023,6.889764,7.1358386,28.5990166632,0,0,-4.026492,289.6, -0.1, -0.7,,,0,0,1024,1024,1505,1024,0,0,73,0,299.9,0,0,87,4.139,4.11,0,0,0,0,4.507,103.82,127.15374357023,6.889764,6,P-GPS,
197100,2026-06-24 10:57:34,12.8566829175238,100.973040066621,7.545932,,,127.80991157023,8.2021,0,28.3896990712,34.090880356,27,5,8.263,127.80991157023,7.545932,7.1358386,28.5990166632,0,0,-4.47388,289.7, -0.3, -0.7,,,0,0,1024,1024,1024,1024,0,0,0,0,299.9,0,0,87,4.139,4.11,0,0,0,0,4.507,103.82,127.80991157023,7.545932,6,P-GPS,
197200,2026-06-24 10:57:34,12.8566829234651,100.973040136963,8.2021,,,128.46607957023,9.186352,0,28.3664379156,34.116142824,27,5,8.263,128.46607957023,8.2021,7.1358386,28.5990166632,0,0,-4.921268,289.7, -0.5, -0.8,,,0,0,1024,1024,1024,1024,0,0,0,0,299.9,0,0,87,4.139,4.11,0,0,0,0,4.507,103.82,128.46607957023,8.2021,6,P-GPS,
197300,2026-06-24 10:57:34,12.8566829207583,100.973040205126,8.858268,,,129.12224757023,9.84252,0,28.3429799096,34.14042104,27,5,8.263,129.12224757023,8.858268,7.1358386,28.5990166632,0,0,-4.47388,289.7, -0.3, -0.7,,,0,0,1024,1024,1024,1024,0,0,0,0,299.9,0,0,87,4.139,4.11,0,0,0,0,4.507,103.82,129.12224757023,8.858268,6,P-GPS,
197400,2026-06-24 10:57:34,12.8566830939824,100.973039968616,9.514436,,,129.77841557023,10.170604,0,28.4420284692,34.245736004,27,5,8.199,129.77841557023,9.514436,7.1358386,28.5990166632,0,0,-3.802798,289.8, -0.1, -0.7,,,0,0,1024,1024,1024,1024,0,0,0,0,299.9,0,0,87,4.111,4.094,0,0,0,0,5.319,103.82,129.77841557023,9.514436,6,P-GPS,
197500,2026-06-24 10:57:34,12.8566830366929,100.973040080759,9.84252,,,130.10649957023,10.826772,0,28.3977371292,34.290683512,27,5,8.199,130.10649957023,9.84252,7.1358386,28.5990166632,0,0,-3.131716,289.7, -0.4, -0.6,,,0,0,1024,1024,1024,1024,0,0,0,0,299.9,0,0,87,4.111,4.094,0,0,0,0,5.319,103.82,130.10649957023,9.84252,6,P-GPS,
197600,2026-06-24 10:57:34,12.8566829745653,100.973040156488,10.170604,,,130.43458357023,11.154856,0,28.3652896216,34.3257885,27,5,8.199,130.43458357023,10.170604,7.1358386,28.5990166632,0,0,-2.23694,289.8, -0.6, -0.4,,,0,0,1024,1024,1024,1024,0,0,0,0,299.9,0,0,87,4.111,4.094,0,0,0,0,5.319,103.82,130.43458357023,10.170604,6,P-GPS,
197700,2026-06-24 10:57:34,12.8566829059109,100.973040232498,10.498688,,,130.76266757023,11.48294,0,28.3320875208,34.362861992,27,5,8.199,130.76266757023,10.498688,7.1358386,28.5990166632,0,0,-1.342164,289.8, -0.8, -0.5,,,0,0,1024,1024,1024,1024,0,0,0,0,299.9,0,0,87,4.111,4.094,0,0,0,0,5.319,103.82,130.76266757023,10.498688,6,P-GPS,
197800,2026-06-24 10:57:34,12.8566829266451,100.973040344176,10.498688,,,130.76266757023,11.48294,0,28.2963591732,34.403216324,27,5,8.199,130.76266757023,10.498688,7.1358386,28.5990166632,0,0,-0.671082,289.8, -0.8, -0.7,,,0,0,1684,1024,1024,1024,100,0,0,0,299.9,0,0,87,4.111,4.094,0,0,0,0,5.319,103.82,130.76266757023,10.498688,6,P-GPS,
197900,2026-06-24 10:57:34,12.8566829353202,100.973040394641,10.826772,,,131.09075157023,11.48294,0,28.2801518236,34.421260944,27,5,8.199,131.09075157023,10.826772,7.1358386,28.5990166632,0,0,-0.223694,289.7, -2.7, -0.6,,,0,0,1684,1024,1024,1024,100,0,0,0,299.9,0,0,87,4.111,4.094,0,0,0,0,5.319,103.82,131.09075157023,10.826772,6,P-GPS,
198000,2026-06-24 10:57:34,12.8566829237831,100.973040410555,10.826772,,,131.09075157023,11.48294,0,28.2734917184,34.428478792,27,5,8.199,131.09075157023,10.826772,7.1358386,28.5990166632,0,0,0,289.8, -12.8, -0.4,,,0,0,1684,1024,1024,1024,100,0,0,0,299.9,0,0,87,4.111,4.094,0,0,0,0,5.319,103.82,131.09075157023,10.826772,6,P-GPS,
198100,2026-06-24 10:57:35,12.8566829842423,100.973040256268,10.826772,,,131.09075157023,11.48294,0.447388,28.3324484132,34.487533912,27,5,8.199,131.09075157023,10.826772,7.1358386,28.5990166632,0,-0.447388,0,289.8, -17.8, -0.3,,,0,0,1684,1024,1024,1024,100,0,0,0,299.9,0,0,87,4.111,4.094,0,0,0,0,5.319,103.82,131.09075157023,10.826772,6,P-GPS,
198200,2026-06-24 10:57:35,12.8566831098353,100.973039844592,10.826772,,,131.09075157023,11.48294,1.1408394,28.4858604916,34.641077224,27,5,8.199,131.09075157023,10.826772,7.1358386,28.5990166632,0.223694,-1.11847,0,289.8, -18.3, -0.3,,,0,0,1024,1024,1024,1684,0,0,0,100,299.9,0,0,87,4.111,4.094,0,0,0,0,5.319,103.82,131.09075157023,10.826772,6,P-GPS,
198300,2026-06-24 10:57:35,12.8566832778317,100.973039228182,10.826772,,,131.09075157023,11.48294,1.6329662,28.7134523624,34.86876752,27,5,8.199,131.09075157023,10.826772,7.1358386,28.7134523624,0.447388,-1.565858,0,289.7, -17.1, -0.2,,,0,0,1024,1024,1024,1684,0,0,0,100,300,0,0,87,4.111,4.094,0,0,0,0,5.319,103.82,131.09075157023,10.826772,6,P-GPS,
198400,2026-06-24 10:57:35,12.8566835026155,100.973038454365,10.826772,,,131.09075157023,11.48294,2.125093,29.000657096,35.15584102,27,5,8.299,131.09075157023,10.826772,7.1358386,29.000657096,0.671082,-2.013246,0,290.3, -4.8, -0.3,,,0,0,1024,1024,1024,1684,0,0,0,100,302.2,0,0,87,4.141,4.126,0,0,0,0,4.336,104,131.09075157023,10.826772,6,P-GPS,
198500,2026-06-24 10:57:35,12.856683758578,100.973037584671,10.498688,,,130.76266757023,11.48294,2.125093,29.3237870276,35.47900376,27,5,8.299,131.09075157023,10.826772,7.1358386,29.3237870276,0.671082,-2.013246,0,293.9, 8, 0.7,,,0,0,1024,1024,1024,1684,0,0,0,100,306.6,0,0,87,4.141,4.126,0,0,0,0,4.336,104,130.76266757023,10.498688,6,P-GPS,
198600,2026-06-24 10:57:35,12.8566839487416,100.973036870045,10.826772,,,131.09075157023,11.48294,1.8342908,29.587107246,35.742455212,27,5,8.299,131.09075157023,10.826772,7.1358386,29.587107246,0.447388,-1.789552,0,298.5, 10, 1.5,,,0,0,1024,1024,1024,1024,0,0,0,0,311.3,0,0,87,4.141,4.126,0,0,0,0,4.336,104,131.09075157023,10.826772,6,P-GPS,
198700,2026-06-24 10:57:35,12.8566841413104,100.973036350479,10.826772,,,131.09075157023,11.48294,1.4092722,29.784449772,35.940289864,27,5,8.299,131.09075157023,10.826772,7.1358386,29.784449772,0.447388,-1.342164,0,302.9, 8.7, 1.9,,,0,0,1444,1024,1024,1024,64,0,0,0,314.8,0,0,87,4.141,4.126,0,0,0,0,4.336,104,131.09075157023,10.826772,6,P-GPS,
198800,2026-06-24 10:57:35,12.8566843259446,100.973035793392,10.826772,,,131.09075157023,11.48294,0.9171454,29.9936689388,36.149607456,26,5,8.299,131.09075157023,10.826772,7.1358386,29.9936689388,0.223694,-0.894776,0,305.1, 6.4, 1.8,,,0,0,1639,1024,1024,1684,93,0,0,100,316.4,0,0,87,4.141,4.126,0,0,0,0,4.336,104,131.09075157023,10.826772,6,P-GPS,
198900,2026-06-24 10:57:35,12.8566844853933,100.973035210417,10.826772,,,131.09075157023,11.48294,0.7158208,30.2089576596,36.36483056,26,5,8.299,131.09075157023,10.826772,7.1358386,30.2089576596,0.223694,-0.671082,0,306.1, -5.7, 0.6,,,0,0,1024,1024,1024,1684,0,0,0,100,317.4,0,0,87,4.141,4.126,0,0,0,0,4.336,104,131.09075157023,10.826772,6,P-GPS,
199000,2026-06-24 10:57:36,12.8566846419955,100.973034784849,10.826772,,,131.09075157023,11.48294,0.8052984,30.3704406044,36.526575972,26,5,8.299,131.09075157023,10.826772,7.1358386,30.3704406044,0.447388,-0.671082,0,308.3, -8.3, -0.1,,,0,0,1666,1024,1024,1684,97,0,0,100,320.8,0,0,87,4.141,4.126,0,0,0,0,4.336,104,131.09075157023,10.826772,6,P-GPS,
199100,2026-06-24 10:57:36,12.8566846583719,100.97303459297,10.826772,,,131.09075157023,11.48294,0.8052984,30.4374025488,36.595145528,27,5,8.299,131.09075157023,10.826772,7.1358386,30.4374025488,0.447388,-0.671082,0,312.6, 3.4, 1.1,,,0,0,1684,1024,1024,1684,100,0,0,100,325.4,0,0,87,4.141,4.126,0,0,0,0,4.336,104,131.09075157023,10.826772,6,P-GPS,
199200,2026-06-24 10:57:36,12.8566847752763,100.973034297841,10.826772,,,131.09075157023,11.48294,0.8052984,30.5503290616,36.708662592,27,5,8.299,131.09075157023,10.826772,7.1358386,30.5503290616,0.447388,-0.671082,0,317.2, -5.1, 0,,,0,0,1684,1024,1024,1684,100,0,0,100,330.2,0,0,87,4.141,4.126,0,0,0,0,4.336,104,131.09075157023,10.826772,6,P-GPS,
199300,2026-06-24 10:57:36,12.8566850170579,100.973033784303,10.826772,,,131.09075157023,11.48294,0.9395148,30.7509196192,36.911418504,27,5,8.299,131.09075157023,10.826772,7.1358386,30.7509196192,0.671082,-0.671082,0,322, -13.7, -1.2,,,0,0,1024,1024,1024,1684,0,0,0,100,335,0,0,87,4.141,4.126,0,0,0,0,4.336,104,131.09075157023,10.826772,6,P-GPS,
199400,2026-06-24 10:57:36,12.8566852907944,100.973033281222,10.826772,,,131.09075157023,11.48294,1.2750558,30.95144456,37.116471004,27,5,8.299,131.09075157023,10.826772,7.1358386,30.95144456,0.894776,-0.894776,0,326.7, -2.1, 0.2,,,0,0,1684,1024,1024,1684,100,0,0,100,339.8,0,0,87,4.141,4.126,0,0,0,0,4.336,104,131.09075157023,10.826772,6,P-GPS,
199500,2026-06-24 10:57:36,12.8566856428941,100.973032589277,10.826772,,,131.09075157023,11.48294,1.11847,31.2247057236,37.394030068,26,5,8.262,131.09075157023,10.826772,7.1358386,31.2247057236,0.894776,-0.671082,0,331.5, 1.9, 1.4,,,0,0,1684,1024,1024,1024,100,0,0,0,344.6,0,0,87,4.132,4.118,0,0,0,0,4.452,104,131.09075157023,10.826772,6,P-GPS,
199600,2026-06-24 10:57:36,12.8566860845013,100.973032198243,10.826772,,,131.09075157023,11.48294,1.11847,31.4058737084,37.606956584,26,5,8.262,131.09075157023,10.826772,7.1358386,31.4058737084,0.894776,-0.671082,0,336.2, -9.8, -0.9,,,0,0,1684,1024,1024,1024,100,0,0,0,348.6,0,0,87,4.132,4.118,0,0,0,0,4.452,104,131.09075157023,10.826772,6,P-GPS,
199700,2026-06-24 10:57:36,12.8566866480536,100.973031772534,10.826772,,,131.09075157023,11.48294,1.7448132,31.6128290956,37.862205936,26,5,8.262,131.09075157023,10.826772,7.1358386,31.6128290956,1.342164,-1.11847,0,339.1, -15.8, -1.2,,,0,0,1684,1024,1024,1024,100,0,0,0,350.5,0,0,87,4.132,4.118,0,0,0,0,4.452,104,131.09075157023,10.826772,6,P-GPS,
199800,2026-06-24 10:57:36,12.8566872549829,100.973031276053,10.826772,,,131.09075157023,11.48294,2.1027236,31.8493120428,38.145342428,26,5,8.262,131.09075157023,10.826772,7.1358386,31.8493120428,1.789552,-1.11847,0,340.4, -16.9, -0.7,,,0,0,1684,1024,1024,1024,100,0,0,0,351.1,0,0,87,4.132,4.118,0,0,0,0,4.452,104,131.09075157023,10.826772,6,P-GPS,
199900,2026-06-24 10:57:36,12.8566881591837,100.973030596119,10.826772,,,131.09075157023,11.48294,2.796175,32.182907854,38.554463176,25,5,8.262,131.09075157023,10.826772,7.1358386,32.182907854,2.460634,-1.342164,0,340.7, -16.6, -0.3,,,0,0,1684,1024,1024,1024,100,0,0,0,351.1,0,0,87,4.132,4.118,0,0,0,0,4.452,104,131.09075157023,10.826772,6,P-GPS,
200000,2026-06-24 10:57:37,12.856689212362,100.973029964489,10.826772,,,131.09075157023,11.48294,3.5119958,32.5197516968,38.999673164,25,5,8.262,131.09075157023,10.826772,7.1358386,32.5197516968,3.131716,-1.565858,0,340.7, -16.1, -0.5,,,0,0,1024,1024,1024,1024,0,0,0,0,351.1,0,0,87,4.132,4.118,0,0,0,0,4.452,104,131.09075157023,10.826772,6,P-GPS,
200100,2026-06-24 10:57:37,12.8566905347057,100.973029402103,10.826772,,,131.09075157023,11.48294,4.0041226,32.86909554,39.521982892,25,5,8.262,131.09075157023,10.826772,7.1358386,32.86909554,3.579104,-1.789552,0,340.7, -15.4, -0.6,,,0,0,1024,1024,1024,1024,0,0,0,0,351.1,0,0,87,4.132,4.118,0,0,0,0,4.452,104,131.09075157023,10.826772,6,P-GPS,
200200,2026-06-24 10:57:37,12.8566920834773,100.973028654332,10.826772,,,131.09075157023,11.48294,4.2054472,33.31364936,40.146326744,25,5,8.262,131.09075157023,10.826772,7.1358386,33.31364936,3.802798,-1.789552,0,340.9, 4.7, 0.6,,,0,0,1024,1024,1024,1068,0,0,0,7,351.1,0,0,87,4.132,4.118,0,0,0,0,4.452,104,131.09075157023,10.826772,6,P-GPS,
200300,2026-06-24 10:57:37,12.8566938988438,100.973027683153,10.826772,,,131.09075157023,11.48294,3.7133204,33.873360664,40.893374012,25,5,8.262,131.09075157023,10.826772,7.1358386,33.873360664,3.35541,-1.565858,0,340.9, 16.5, 1.6,,,0,0,1024,1024,1024,1684,0,0,0,100,351.1,0,0,87,4.132,4.118,0,0,0,0,4.452,104,131.09075157023,10.826772,6,P-GPS,
200400,2026-06-24 10:57:37,12.8566953319136,100.973026909389,10.826772,,,131.09075157023,11.48294,2.908022,34.322835744,41.484253296,25,5,8.262,131.09075157023,10.826772,7.1358386,34.322835744,2.684328,-1.11847,0,341.6, 16.8, 1.8,,,0,0,1024,1024,1024,1024,0,0,0,0,353.2,0,0,87,4.132,4.118,0,0,0,0,4.452,104,131.09075157023,10.826772,6,P-GPS,
